City_ID,City,Lat,Lng,Max Temp,Humidity,Cloudiness,Wind Speed,Country,Date
0,abha,18.2164,42.5053,13.9,82,0,0.0,SA,1675881024
1,orodara,10.9492,-4.9342,30.01,23,62,1.62,BF,1675881025
2,vardo,70.3705,31.1107,1.99,75,0,7.2,NO,1675880674
3,clyde river,70.4692,-68.5914,-36.87,67,20,3.09,CA,1675880682
4,kapaa,22.0752,-159.319,24.18,79,20,9.26,US,1675880514
5,vaini,-21.2,-175.2,25.09,94,75,2.57,TO,1675880542
6,pevek,69.7008,170.3133,-32.02,100,100,3.08,RU,1675880560
7,kalabo,-14.97,22.6814,20.33,89,100,2.31,ZM,1675881037
8,port alfred,-33.5906,26.891,21.21,85,100,3.26,ZA,1675880564
9,puerto ayora,-0.7393,-90.3518,29.98,89,85,4.47,EC,1675880517
10,lasa,46.6166,10.7002,-1.51,92,47,0.19,IT,1675880613
11,kavaratti,10.5669,72.642,26.53,75,63,4.46,IN,1675880631
12,dikson,73.5069,80.5464,-15.58,79,100,6.64,RU,1675880319
13,arcachon,44.5875,-1.0519,7.18,65,0,2.57,FR,1675881039
14,hasaki,35.7333,140.8333,3.22,57,85,7.65,JP,1675880695
15,black river,18.0264,-77.8487,29.28,56,21,6.95,JM,1675881044
16,bambanglipuro,-7.95,110.2833,24.6,92,100,4.73,ID,1675880765
17,akkermanovka,51.2467,58.2391,-18.12,100,65,2.4,RU,1675881045
18,norman wells,65.282,-126.8329,-27.98,69,75,1.03,CA,1675880654
19,nizhneangarsk,55.7833,109.55,-17.46,93,100,2.08,RU,1675881046
20,lebu,-37.6167,-73.65,19.03,72,1,5.56,CL,1675880634
21,walvis bay,-22.9575,14.5053,20.53,77,36,4.12,NA,1675880468
22,saldanha,-33.0117,17.9442,19.16,84,29,6.36,ZA,1675880566
23,tirano,46.2154,10.1679,1.13,92,100,0.67,IT,1675881047
24,ushuaia,-54.8,-68.3,21.81,40,75,4.63,AR,1675880510
25,qaanaaq,77.484,-69.3632,-32.45,68,16,2.79,GL,1675880340
26,saint george,37.1041,-113.5841,9.41,45,0,0.89,US,1675880581
27,mataura,-46.1927,168.8643,9.15,94,89,3.38,NZ,1675880549
28,ostrovnoy,68.0531,39.5131,-1.59,74,65,15.45,RU,1675880566
29,port lincoln,-34.7333,135.8667,18.58,80,55,4.94,AU,1675880748
30,dosso,13.049,3.1937,28.83,11,100,4.31,NE,1675881049
31,owando,-0.4819,15.8999,28.45,38,39,0.22,CG,1675880745
32,luanda,-8.8368,13.2343,28.0,69,0,5.14,AO,1675881049
33,busselton,-33.65,115.3333,15.4,88,0,5.07,AU,1675880507
34,albany,42.6001,-73.9662,7.58,55,61,1.79,US,1675880505
35,nikolskoye,59.7035,30.7861,1.94,94,100,2.98,RU,1675880262
36,bredasdorp,-34.5322,20.0403,20.41,72,1,7.55,ZA,1675880452
37,jamestown,42.097,-79.2353,4.77,60,0,0.0,US,1675880307
38,kenora,49.8167,-94.4337,0.54,64,75,3.6,CA,1675880853
39,hilo,19.7297,-155.09,21.08,91,100,2.57,US,1675880545
40,bluff,-46.6,168.3333,9.33,69,72,10.17,NZ,1675880572
41,portland,45.5234,-122.6762,9.24,89,75,4.12,US,1675880437
42,rikitea,-23.1203,-134.9692,26.25,75,5,6.29,PF,1675880502
43,sarangani,5.4033,125.4636,26.32,75,100,3.87,PH,1675881050
44,ferrol,43.4832,-8.2369,12.29,64,0,6.06,ES,1675881051
45,butaritari,3.0707,172.7902,26.81,83,84,9.5,KI,1675880524
46,mount isa,-20.7333,139.5,24.87,100,100,3.09,AU,1675880645
47,guiyang,26.5833,106.7167,5.27,100,100,3.0,CN,1675881049
48,hobart,-42.8794,147.3294,13.92,84,100,2.57,AU,1675880218
49,alofi,-19.0595,-169.9187,24.94,100,100,2.06,NU,1675881052
50,egvekinot,66.3167,-179.1667,-27.06,93,100,2.72,RU,1675881052
51,thompson,55.7435,-97.8558,-8.91,86,40,1.54,CA,1675880506
52,rocha,-34.4833,-54.3333,28.09,55,85,1.26,UY,1675881053
53,barrow,71.2906,-156.7887,-26.99,76,100,1.54,US,1675880571
54,ondangwa,-17.9167,15.95,23.86,42,94,4.53,NA,1675881053
55,kostomuksha,64.571,30.5767,0.03,91,100,7.63,RU,1675881054
56,pisco,-13.7,-76.2167,26.12,78,0,4.12,PE,1675880554
57,sergeyevka,53.88,67.4158,-26.63,100,100,2.96,KZ,1675881054
58,upernavik,72.7868,-56.1549,-31.55,88,22,1.76,GL,1675880540
59,emba,48.8264,58.1442,-19.74,93,5,3.31,KZ,1675881055
60,puerto del rosario,28.5004,-13.8627,18.86,48,40,3.09,ES,1675881055
61,dickinson,29.4608,-95.0513,27.03,82,40,7.72,US,1675881056
62,khatanga,71.9667,102.5,-43.09,100,77,1.88,RU,1675880332
63,hermanus,-34.4187,19.2345,21.56,65,0,8.95,ZA,1675880375
64,cape town,-33.9258,18.4232,23.84,62,0,5.36,ZA,1675880258
65,suntar,62.1444,117.6319,-45.61,100,63,0.15,RU,1675880864
66,jinxiang,27.4327,120.6062,9.76,93,100,3.45,CN,1675881057
67,hay river,60.8156,-115.7999,-20.01,77,0,3.09,CA,1675880556
68,carnarvon,-24.8667,113.6333,25.5,76,10,9.53,AU,1675880333
69,chumikan,54.7183,135.315,-30.28,89,87,6.38,RU,1675880752
70,bintulu,3.1667,113.0333,24.23,94,20,1.54,MY,1675881058
71,ponta do sol,32.6667,-17.1,16.51,68,62,2.8,PT,1675880577
72,tasiilaq,65.6145,-37.6368,-15.91,54,0,4.65,GL,1675880630
73,luderitz,-26.6481,15.1594,19.04,83,0,8.92,NA,1675880641
74,cancun,21.1743,-86.8466,27.96,69,75,5.66,MX,1675880392
75,makakilo city,21.3469,-158.0858,23.18,69,20,5.14,US,1675881059
76,pedernales,18.0384,-71.744,29.19,51,0,3.42,DO,1675881060
77,narsaq,60.9167,-46.05,-12.88,93,100,4.85,GL,1675880520
78,saskylakh,71.9167,114.0833,-37.52,99,95,2.42,RU,1675880597
79,buraydah,26.326,43.975,13.25,38,100,3.87,SA,1675881061
80,vao,-22.6667,167.4833,25.43,84,100,7.16,NC,1675880671
81,bara,10.3744,10.7288,29.88,17,33,4.01,NG,1675881062
82,havelock,34.8791,-76.9013,22.97,51,0,5.66,US,1675881063
83,nome,64.5011,-165.4064,-18.96,84,100,0.0,US,1675880493
84,pochutla,15.7432,-96.4661,31.57,33,0,4.64,MX,1675881063
85,hofn,64.2539,-15.2082,-2.86,53,47,3.88,IS,1675880802
86,cabra,37.4725,-4.4421,10.47,70,75,0.69,ES,1675880580
87,atuona,-9.8,-139.0333,26.18,80,18,8.48,PF,1675880268
88,richards bay,-28.783,32.0377,23.48,93,90,4.87,ZA,1675881064
89,mae sai,20.4335,99.8762,15.09,32,0,1.11,TH,1675881065
90,sacile,45.9541,12.5029,2.32,48,20,2.68,IT,1675881066
91,agadez,19.75,10.25,21.86,18,25,3.77,NE,1675881066
92,port loko,8.7667,-12.7833,27.41,48,3,3.81,SL,1675881067
93,punta arenas,-53.15,-70.9167,22.01,60,100,7.72,CL,1675880504
94,cape coast,5.1053,-1.2466,27.03,80,100,3.41,GH,1675881067
95,maniitsoq,65.4167,-52.9,-12.51,69,100,6.3,GL,1675881068
96,dayong,25.0209,118.2898,15.53,80,100,0.93,CN,1675881069
97,buala,-8.145,159.5921,26.46,85,86,3.25,SB,1675881069
98,flagstaff,35.1981,-111.6513,5.87,34,0,0.45,US,1675880478
99,bowen,-20.0167,148.2333,25.79,83,100,8.4,AU,1675880917
100,ponta delgada,37.7333,-25.6667,14.4,62,75,6.17,PT,1675880615
101,san quintin,30.4833,-115.95,17.16,33,27,0.88,MX,1675880740
102,nouadhibou,20.931,-17.0347,20.99,56,40,7.2,MR,1675881071
103,leningradskiy,69.3833,178.4167,-29.67,93,100,2.08,RU,1675880692
104,katsuura,35.1333,140.3,7.38,82,90,5.52,JP,1675880454
105,saint-philippe,-21.3585,55.7679,25.77,83,56,5.34,RE,1675880516
106,tilichiki,60.4667,166.1,-26.72,90,98,5.26,RU,1675881074
107,avarua,-21.2078,-159.775,26.03,89,40,2.06,CK,1675880514
108,ler,8.3018,30.1418,28.61,17,0,3.71,SS,1675881074
109,yellowknife,62.456,-114.3525,-24.69,77,20,2.06,CA,1675880530
110,tabou,4.423,-7.3528,26.59,81,86,2.91,CI,1675881080
111,east london,-33.0153,27.9116,20.52,94,100,1.54,ZA,1675880589
112,faanui,-16.4833,-151.75,26.84,75,24,4.76,PF,1675880543
113,yatou,37.15,122.3833,1.0,53,100,2.33,CN,1675881083
114,yerbogachen,61.2767,108.0108,-20.81,98,100,2.21,RU,1675881084
115,ruidoso,33.3317,-105.673,4.79,42,0,7.72,US,1675881088
116,beringovskiy,63.05,179.3167,-33.56,97,27,2.51,RU,1675881089
117,kieta,-6.2167,155.6333,26.44,84,100,2.7,PG,1675881090
118,tual,-5.6667,132.75,26.06,91,100,13.06,ID,1675881091
119,bubaque,11.2833,-15.8333,24.71,67,4,5.63,GW,1675881092
120,fairbanks,64.8378,-147.7164,-16.33,83,100,0.0,US,1675881093
121,texarkana,33.4251,-94.0477,12.12,94,100,2.06,US,1675881093
122,saint-augustin,51.226,-58.6502,-6.02,87,100,2.01,CA,1675880681
123,hithadhoo,-0.6,73.0833,27.58,73,21,2.78,MV,1675880501
124,searcy,35.2506,-91.7363,10.06,99,100,1.54,US,1675881097
125,aranos,-24.1333,19.1167,24.74,51,83,8.62,NA,1675881100
126,hualmay,-11.0964,-77.6139,25.95,69,70,5.01,PE,1675880604
127,torbay,47.6666,-52.7314,1.33,95,100,8.75,CA,1675880579
128,pavilosta,56.8879,21.1859,1.95,86,99,8.72,LV,1675881100
129,atherton,53.5237,-2.4935,6.35,74,100,0.89,GB,1675881101
130,tiksi,71.6872,128.8694,-40.03,98,54,2.68,RU,1675880452
131,chokurdakh,70.6333,147.9167,-34.68,98,100,2.47,RU,1675881102
132,roald,62.5833,6.1333,10.18,53,20,13.38,NO,1675880578
133,sao filipe,14.8961,-24.4956,20.95,70,81,3.63,CV,1675880573
134,vryburg,-26.9566,24.7284,17.8,81,100,6.23,ZA,1675880577
135,santa cruz,-17.8,-63.1667,32.03,58,40,6.69,BO,1675880521
136,georgetown,5.4112,100.3354,26.96,93,20,1.03,MY,1675880348
137,kodiak,57.79,-152.4072,-8.27,73,0,3.09,US,1675880558
138,riyadh,24.6877,46.7219,16.08,29,24,3.51,SA,1675880923
139,hovd,48.0056,91.6419,-16.76,83,74,0.67,MN,1675880688
140,avera,33.194,-82.5271,23.54,63,100,2.86,US,1675881104
141,cherskiy,68.75,161.3,-31.18,98,100,3.43,RU,1675880515
142,krasnoyarskiy,51.965,59.8967,-21.49,100,95,3.3,RU,1675881104
143,la rioja,42.25,-2.5,2.88,88,100,1.08,ES,1675881105
144,teruel,40.6667,-0.6667,-0.96,98,100,0.53,ES,1675881106
145,ucluelet,48.9329,-125.5528,5.17,77,100,3.05,CA,1675881106
146,lavrentiya,65.5833,-171.0,-24.92,90,100,1.89,RU,1675881107
147,akureyri,65.6835,-18.0878,-5.04,63,75,5.66,IS,1675881107
148,waipawa,-41.4122,175.5153,11.5,87,3,2.46,NZ,1675880263
149,hami,42.8,93.45,0.3,59,27,2.66,CN,1675880567
150,stromness,58.965,-3.296,4.98,87,100,7.6,GB,1675881108
151,cabo san lucas,22.8909,-109.9124,25.9,39,0,3.6,MX,1675880576
152,shenjiamen,29.9576,122.298,10.17,84,100,4.46,CN,1675881108
153,chuy,-33.6971,-53.4616,26.19,64,52,4.41,UY,1675880512
154,lazaro cardenas,17.9583,-102.2,27.9,58,2,2.73,MX,1675880893
155,kushima,31.4583,131.2333,9.61,74,72,3.69,JP,1675881109
156,arraial do cabo,-22.9661,-42.0278,28.98,74,20,4.12,BR,1675880512
157,petropavlovsk-kamchatskiy,53.0452,158.6483,-18.46,85,40,2.0,RU,1675880760
158,faya,18.3851,42.4509,14.06,69,97,0.95,SA,1675880790
159,chanute,37.6792,-95.4572,5.06,87,100,2.57,US,1675881110
160,usinsk,65.9939,57.5281,-1.59,86,100,13.49,RU,1675880458
161,seduva,55.7667,23.7667,-0.76,84,100,4.58,LT,1675881111
162,geraldton,-28.7667,114.6,21.23,83,0,5.14,AU,1675880590
163,codrington,-38.2667,141.9667,11.94,87,58,2.71,AU,1675880398
164,comodoro rivadavia,-45.8667,-67.5,30.92,19,0,7.2,AR,1675880582
165,port elizabeth,-33.918,25.5701,21.29,79,0,1.79,ZA,1675880559
166,talara,-4.5772,-81.2719,33.42,43,0,7.72,PE,1675881111
167,olafsvik,64.8945,-23.7142,-3.28,62,100,12.13,IS,1675881112
168,drawsko pomorskie,53.5306,15.8097,-2.74,84,29,1.79,PL,1675881113
169,barra patuca,15.8,-84.2833,27.41,66,0,5.47,HN,1675881113
170,vorukh,39.8494,70.5838,1.16,64,100,4.02,TJ,1675881114
171,shepsi,44.0361,39.1489,-1.45,77,52,8.42,RU,1675881115
172,edgewater,28.9889,-80.9023,27.87,60,40,4.63,US,1675881116
173,palana,59.1167,159.9667,-25.61,96,98,6.51,RU,1675880532
174,manono,-7.3,27.4167,19.08,96,99,1.24,CD,1675881116
175,kenai,60.5544,-151.2583,-5.95,86,100,2.57,US,1675880797
176,pathein,16.7833,94.7333,21.54,67,0,4.29,MM,1675881117
177,longyearbyen,78.2186,15.6401,-4.09,86,75,6.69,SJ,1675881117
178,kortkeros,61.8106,51.5806,-1.0,87,97,3.77,RU,1675881118
179,rio gallegos,-51.6226,-69.2181,24.03,31,75,12.35,AR,1675880550
180,obihiro,42.9172,143.2044,-9.66,93,76,1.2,JP,1675881118
181,kiunga,-6.1219,141.2906,23.0,99,100,2.23,PG,1675881119
182,jacareacanga,-6.2222,-57.7528,30.68,63,21,1.36,BR,1675881119
183,christchurch,-43.5333,172.6333,12.73,85,88,1.54,NZ,1675880903
184,rawson,-43.3002,-65.1023,32.16,19,0,5.14,AR,1675880448
185,mar del plata,-38.0023,-57.5575,31.02,51,0,4.12,AR,1675880541
186,kaitangata,-46.2817,169.8464,8.9,74,52,5.9,NZ,1675880765
187,council bluffs,41.2619,-95.8608,11.38,44,0,5.14,US,1675881120
188,devonport,-41.1667,146.35,15.01,82,100,3.61,AU,1675881121
189,esperance,-33.8667,121.9,19.09,74,69,5.2,AU,1675880664
190,opuwo,-18.0607,13.84,24.2,35,100,5.35,NA,1675881121
191,adrar,20.5022,-10.0711,23.06,14,100,4.9,MR,1675880633
192,husavik,66.0449,-17.3389,-6.25,75,63,5.77,IS,1675880553
193,roswell,34.0232,-84.3616,21.44,62,100,3.09,US,1675880927
194,tombouctou,20.0,-3.0,23.93,16,28,4.94,ML,1675881122
195,mosquera,4.7059,-74.2302,22.05,40,40,5.14,CO,1675881123
196,san cristobal,7.7669,-72.225,26.1,37,78,3.45,VE,1675880378
197,aswan,24.0934,32.907,15.37,28,100,4.56,EG,1675881028
198,souillac,-20.5167,57.5167,26.21,83,40,2.06,MU,1675880526
199,tuktoyaktuk,69.4541,-133.0374,-36.0,75,20,2.06,CA,1675881124
200,bambous virieux,-20.3428,57.7575,26.23,83,40,2.06,MU,1675880670
201,emporia,38.4039,-96.1817,6.11,49,100,3.6,US,1675881125
202,berdigestyakh,62.0989,126.6992,-43.95,100,88,1.1,RU,1675881126
203,constitucion,-35.3333,-72.4167,22.17,54,4,3.98,CL,1675880586
204,hamilton,39.1834,-84.5333,11.91,54,0,2.06,US,1675880530
205,aripuana,-9.1667,-60.6333,32.41,47,72,1.22,BR,1675881129
206,morant bay,17.8815,-76.4093,30.95,63,1,5.16,JM,1675881131
207,damghan,36.1683,54.348,4.49,55,96,2.86,IR,1675881132
208,mahebourg,-20.4081,57.7,26.25,83,40,2.06,MU,1675881132
209,bathsheba,13.2167,-59.5167,29.34,65,40,9.26,BB,1675880587
210,marrakesh,31.6315,-8.0083,16.04,51,40,4.12,MA,1675881133
211,krasnoselkup,65.7,82.4667,-20.59,95,100,5.83,RU,1675880632
212,cayenne,4.9333,-52.3333,28.02,74,75,5.66,GF,1675880630
213,lamu,-2.2717,40.902,26.12,86,5,6.62,KE,1675881135
214,te anau,-45.4167,167.7167,7.24,79,93,0.6,NZ,1675881137
215,dingle,10.9995,122.6711,22.77,92,95,3.55,PH,1675880557
216,vestmannaeyjar,63.4427,-20.2734,-1.45,80,40,16.98,IS,1675880600
217,fortuna,40.5982,-124.1573,9.4,93,100,0.45,US,1675880597
218,asau,46.4333,26.4,-9.29,96,49,2.05,RO,1675880563
219,turayf,31.6725,38.6637,4.14,75,40,5.14,SA,1675880704
220,baykit,61.67,96.37,-16.52,99,100,0.33,RU,1675881139
221,moose factory,51.2585,-80.6094,-10.0,67,0,1.54,CA,1675881140
222,victoria,22.2855,114.1577,18.87,91,100,5.36,HK,1675880411
223,upington,-28.4478,21.2561,21.21,73,20,10.29,ZA,1675881106
224,eldama ravine,0.0516,35.7308,17.75,44,96,2.66,KE,1675881141
225,lai,9.3952,16.2989,29.81,13,10,2.49,TD,1675881142
226,stornoway,58.2093,-6.3865,2.98,89,75,8.75,GB,1675880622
227,belaya gora,68.5333,146.4167,-41.49,99,100,1.45,RU,1675881143
228,magadan,59.5667,150.8,-27.26,79,63,3.26,RU,1675881144
229,redlands,34.0556,-117.1825,20.53,26,0,0.45,US,1675881145
230,tacuarembo,-31.7333,-55.9833,38.42,14,100,4.57,UY,1675881146
231,bethel,41.3712,-73.414,10.2,55,20,6.17,US,1675880634
232,lieksa,63.3167,30.0167,0.75,90,100,7.02,FI,1675881147
233,broome,42.2506,-75.833,7.61,57,0,4.63,US,1675881149
234,ossora,59.2353,163.0719,-17.78,96,100,4.77,RU,1675881149
235,kupang,-10.1667,123.5833,26.24,85,100,2.82,ID,1675881150
236,byron bay,-28.65,153.6167,19.41,84,65,3.58,AU,1675880606
237,samarai,-10.6167,150.6667,25.9,87,100,6.4,PG,1675881152
238,itaituba,-4.2761,-55.9836,31.09,66,75,3.09,BR,1675881152
239,ippy,6.2679,21.2247,28.1,12,9,2.26,CF,1675881153
240,itoman,26.1247,127.6694,18.01,79,20,6.17,JP,1675881154
241,canatlan,24.5167,-104.7833,16.73,16,99,3.24,MX,1675881154
242,kankan,10.3854,-9.3057,31.11,16,1,1.2,GN,1675881155
243,saint-paul,-21.0096,55.2707,26.06,80,52,1.69,RE,1675881155
244,hobyo,5.3505,48.5268,24.94,84,6,5.66,SO,1675881158
245,metro,-5.1131,105.3067,23.86,90,100,0.37,ID,1675881159
246,gamba,-2.65,10.0,26.84,84,58,3.73,GA,1675880892
247,schwanewede,53.2333,8.6,2.14,70,10,2.85,DE,1675881160
248,saint anthony,45.0205,-93.218,4.03,66,0,5.14,US,1675880571
249,altusried,47.8,10.2167,-3.74,93,9,1.51,DE,1675881164
250,pirgos,35.1167,25.7178,7.57,51,100,8.07,GR,1675881164
251,poum,-20.2333,164.0167,27.09,81,100,4.01,NC,1675880629
252,auriflama,-20.6856,-50.5547,29.41,60,29,1.78,BR,1675881165
253,kanke,23.4333,85.3167,18.01,52,0,2.06,IN,1675881165
254,deputatskiy,69.3,139.9,-42.93,99,91,1.92,RU,1675881166
255,wanaka,-44.7,169.15,7.59,74,3,1.36,NZ,1675881167
256,tabuk,17.4189,121.4443,19.58,91,93,1.74,PH,1675881167
257,teguldet,57.3064,88.1667,-15.97,98,98,1.65,RU,1675880507
258,mehran,33.1222,46.1646,9.83,64,51,3.51,IR,1675881167
259,gien,47.6933,2.6309,2.53,63,0,1.87,FR,1675881168
260,cidreira,-30.1811,-50.2056,26.8,74,0,6.83,BR,1675881169
261,burias,11.4463,122.5497,24.35,89,100,1.55,PH,1675881169
262,omsukchan,62.5333,155.8,-40.17,99,75,1.79,RU,1675881170
263,komsomolskiy,40.4272,71.7189,4.4,75,100,2.06,UZ,1675880687
264,maraba,-5.3686,-49.1178,30.1,74,75,3.09,BR,1675880958
265,ahipara,-35.1667,173.1667,16.57,84,3,2.76,NZ,1675880606
266,anadyr,64.75,177.4833,-33.72,75,0,4.0,RU,1675880336
267,yar-sale,66.8333,70.8333,-9.36,93,38,7.11,RU,1675881171
268,ribeira grande,38.5167,-28.7,14.87,54,20,3.09,PT,1675880574
269,taree,-31.9,152.4667,17.81,98,63,1.34,AU,1675881171
270,kirillov,59.863,38.3813,-8.37,99,91,1.49,RU,1675881172
271,vila velha,-20.3297,-40.2925,29.97,73,20,6.69,BR,1675881172
272,los llanos de aridane,28.6585,-17.9182,15.86,70,75,2.06,ES,1675880793
273,huarmey,-10.0681,-78.1522,25.71,72,49,5.09,PE,1675881172
274,yokote,39.3,140.5667,-0.97,70,100,7.16,JP,1675881173
275,namibe,-15.1961,12.1522,22.92,71,99,5.94,AO,1675880728
276,lorengau,-2.0226,147.2712,24.53,85,100,3.42,PG,1675880476
277,peniche,39.3558,-9.3811,12.38,74,94,9.48,PT,1675880746
278,klaksvik,62.2266,-6.589,2.51,69,85,13.79,FO,1675881173
279,zlobin,45.2924,14.6541,-3.39,57,20,7.72,HR,1675881174
280,znamenskoye,57.1281,73.8282,-26.95,100,100,1.52,RU,1675881174
281,yenagoa,4.9247,6.2642,28.09,70,99,3.85,NG,1675881175
282,mayor pablo lagerenza,-19.9309,-60.7718,34.62,42,98,3.62,PY,1675881176
283,teya,60.3778,92.6267,-16.88,99,100,1.26,RU,1675880639
284,lagoa,39.05,-27.9833,13.6,61,30,5.97,PT,1675881176
285,rabo de peixe,37.8,-25.5833,13.73,62,75,6.17,PT,1675881177
286,khani,41.9563,42.9566,-1.24,97,98,0.73,GE,1675880784
287,macon,39.8667,-88.9668,5.49,70,0,4.63,US,1675881177
288,port augusta,-32.5,137.7667,25.33,20,2,2.27,AU,1675880672
289,north bend,43.4065,-124.2243,7.31,93,0,0.0,US,1675881013
290,ancud,-41.8697,-73.8203,18.57,72,11,4.14,CL,1675881178
291,new norfolk,-42.7826,147.0587,13.72,94,100,0.65,AU,1675881179
292,tahe,52.3333,124.7333,-28.84,100,13,1.72,CN,1675881179
293,kavieng,-2.5744,150.7967,26.92,79,100,3.84,PG,1675881180
294,talnakh,69.4865,88.3972,-21.0,96,100,3.86,RU,1675880638
295,mareeba,-17.0,145.4333,23.58,90,56,1.0,AU,1675881180
296,kembe,4.6228,21.8865,26.07,16,11,1.63,CF,1675881181
297,bac lieu,9.285,105.7244,25.05,86,11,5.97,VN,1675881181
298,la ligua,-32.4524,-71.2311,28.1,46,0,4.18,CL,1675881182
299,gat,31.61,34.7642,8.55,100,98,4.22,IL,1675880704
300,karema,-6.8205,30.4389,21.61,86,87,2.11,TZ,1675881182
301,bama,11.5221,13.6856,23.85,24,91,4.43,NG,1675881184
302,cervo,43.6702,-7.4101,11.65,84,14,6.6,ES,1675881184
303,dzilam gonzalez,21.2833,-88.9333,32.05,40,0,4.2,MX,1675881185
304,svetlyy,54.675,20.1347,0.03,81,74,5.4,RU,1675880774
305,iqaluit,63.7506,-68.5145,-29.15,69,75,0.0,CA,1675880537
306,airai,-8.9266,125.4092,15.48,96,94,0.75,TL,1675880334
307,alice springs,-23.7,133.8833,21.75,73,2,2.06,AU,1675880695
308,castro,-24.7911,-50.0119,27.39,46,12,1.98,BR,1675881187
309,marawi,7.9986,124.2928,19.7,95,100,0.18,PH,1675881187
310,toul,48.6667,5.9167,3.16,55,0,3.09,FR,1675881188
311,la ronge,55.1001,-105.2842,-6.86,58,20,4.63,CA,1675881189
312,nanortalik,60.1432,-45.2371,-0.65,81,100,4.86,GL,1675881189
313,shiloh,38.5614,-89.8973,7.73,76,100,3.09,US,1675881190
314,birjand,32.8663,59.2211,13.26,22,0,4.12,IR,1675881190
315,conde,-7.2597,-34.9075,29.7,58,20,6.69,BR,1675880976
316,severo-kurilsk,50.6789,156.125,-6.09,69,95,4.06,RU,1675881191
317,bilma,18.6853,12.9164,22.44,15,5,3.39,NE,1675881191
318,pangnirtung,66.1451,-65.7125,-28.0,63,20,0.0,CA,1675881192
319,sumbe,-11.2061,13.8437,24.66,79,20,3.04,AO,1675881192
320,cajaruro,-5.7364,-78.4256,32.91,43,85,1.87,PE,1675881193
321,sambava,-14.2667,50.1667,24.67,89,54,3.5,MG,1675881193
322,barguzin,53.6167,109.6167,-18.07,93,87,0.97,RU,1675881194
323,trairi,-3.2778,-39.2689,28.97,59,96,5.75,BR,1675881094
324,pimentel,-6.8367,-79.9342,30.16,48,20,9.77,PE,1675881194
325,luena,-11.7833,19.9167,17.3,88,99,1.54,AO,1675881195
326,cairns,-16.9167,145.7667,26.15,97,40,0.0,AU,1675881107
327,guozhen,34.3659,107.359,3.99,97,100,0.62,CN,1675881196
328,mwene-ditu,-7.0,23.45,18.48,96,100,3.19,CD,1675881198
329,coquimbo,-29.9533,-71.3436,20.85,73,20,6.17,CL,1675881199
330,yumen,40.2833,97.2,-3.48,53,0,1.79,CN,1675881200
331,huzhou,30.8703,120.0933,7.17,87,100,3.76,CN,1675881202
332,aden,12.7794,45.0367,24.75,71,12,1.43,YE,1675881203
333,almaznyy,48.0448,40.045,-9.94,93,6,4.61,RU,1675881204
334,sirjan,29.452,55.6814,8.25,52,100,5.38,IR,1675881207
335,natal,-5.795,-35.2094,31.36,58,20,8.23,BR,1675880562
336,aksarka,66.5606,67.7975,-4.46,82,87,8.24,RU,1675881209
337,salalah,17.0151,54.0924,24.05,78,0,0.0,OM,1675881209
338,kungurtug,50.5994,97.5228,-17.48,94,100,0.58,RU,1675881210
339,kribi,2.95,9.9167,26.94,83,100,3.91,CM,1675881212
340,campina verde,-19.5356,-49.4864,28.01,69,95,3.58,BR,1675881213
341,amurzet,47.6967,131.0981,-25.34,94,5,2.51,RU,1675881213
342,troitskiy,57.0603,63.7481,-9.84,94,100,4.02,RU,1675881215
343,kahului,20.8947,-156.47,24.36,68,75,6.69,US,1675881137
344,yulara,-25.2406,130.9889,27.56,43,4,3.33,AU,1675881216
345,mancio lima,-7.6142,-72.8958,30.04,66,40,2.06,BR,1675881216
346,skjervoy,70.0311,20.9714,10.0,64,100,13.31,NO,1675881217
347,ust-tsilma,65.441,52.1498,-3.36,90,100,4.21,RU,1675881217
348,atasu,48.6814,71.6433,-10.64,95,100,4.24,KZ,1675881219
349,shingu,33.7333,135.9833,3.47,80,13,2.84,JP,1675881220
350,manglaur,29.8,77.8667,12.63,48,75,2.44,IN,1675881220
351,vostok,46.4856,135.8833,-25.46,99,100,2.31,RU,1675881221
352,bandarbeyla,9.4942,50.8122,24.34,80,4,3.6,SO,1675881221
353,isangel,-19.55,169.2667,25.61,89,100,3.67,VU,1675880623
354,fairview,40.8126,-73.999,11.71,45,0,5.66,US,1675880935
355,san patricio,28.017,-97.5169,14.54,81,100,8.24,US,1675881222
356,alta floresta,-9.8756,-56.0861,30.9,62,20,2.06,BR,1675881223
357,biak,-0.9131,122.8766,23.99,82,100,1.91,ID,1675880745
358,nishihara,26.1842,127.7558,17.6,80,20,6.17,JP,1675881223
359,tazovskiy,67.4667,78.7,-14.81,93,100,8.39,RU,1675880631
360,boden,65.8252,21.6886,0.0,89,100,5.37,SE,1675881224
361,tondano,1.3038,124.9112,17.05,93,100,0.87,ID,1675881224
362,palu,-0.8917,119.8707,23.93,92,100,0.96,ID,1675881224
363,bengkulu,-3.8004,102.2655,23.8,87,72,2.04,ID,1675881225
364,tunceli,39.1083,39.5471,-9.28,84,97,2.66,TR,1675881226
365,ambilobe,-13.2,49.05,23.11,95,100,0.8,MG,1675881226
366,quelimane,-17.8786,36.8883,26.97,89,75,1.54,MZ,1675881227
367,puerto maldonado,-12.6,-69.1833,24.22,83,75,6.69,PE,1675881227
368,sao felix do xingu,-6.6447,-51.995,27.08,71,71,1.63,BR,1675881228
369,ruwi,23.5996,58.5507,23.83,53,4,0.43,OM,1675881228
370,goderich,43.7501,-81.7165,3.18,81,21,3.6,CA,1675881027
371,lincoln,40.8,-96.667,11.09,46,0,6.17,US,1675881223
372,rudnogorsk,57.2639,103.7519,-11.97,97,100,1.75,RU,1675881229
373,balagansk,54.0103,103.0544,-21.47,100,100,1.52,RU,1675881230
374,semnan,35.5729,53.3971,4.69,53,85,3.16,IR,1675881231
375,college,64.8569,-147.8028,-16.34,82,100,0.0,US,1675880695
376,shimoda,34.6667,138.95,8.88,62,100,5.85,JP,1675881232
377,lodja,-3.4833,23.4333,21.25,97,100,0.5,CD,1675881232
378,jumla,29.2747,82.1838,2.54,58,0,1.36,NP,1675881233
379,gizo,-8.103,156.8419,27.59,79,100,5.15,SB,1675880657
380,louis trichardt,-23.0439,29.9032,20.47,93,100,1.73,ZA,1675881234
381,karratha,-20.7377,116.8463,30.0,65,34,1.97,AU,1675880732
382,ayagoz,47.9714,80.4392,-12.26,91,100,3.91,KZ,1675881234
383,straumen,63.8709,11.2999,7.0,85,100,1.34,NO,1675881235
384,nicoya,10.1483,-85.452,34.47,36,13,5.01,CR,1675881235
385,paysandu,-32.3214,-58.0756,38.82,9,98,3.99,UY,1675881100
386,pontianak,-0.0333,109.3333,23.99,100,40,1.03,ID,1675881236
387,prince albert,53.2001,-105.7677,-2.03,54,75,5.14,CA,1675881236
388,henties bay,-22.116,14.2845,18.38,85,91,4.51,NA,1675881237
389,vangaindrano,-23.35,47.6,23.46,92,100,2.69,MG,1675881238
390,tynda,55.1667,124.7167,-37.33,100,83,0.35,RU,1675881131
391,aykhal,66.0,111.5,-40.21,100,93,2.42,RU,1675881226
392,chicama,-7.8447,-79.1469,25.3,55,35,5.33,PE,1675881239
393,funza,4.7164,-74.212,22.02,40,40,5.14,CO,1675881240
394,mahajanga,-15.7167,46.3167,26.01,89,40,2.06,MG,1675881152
395,sola,-13.8833,167.55,27.07,72,100,2.56,VU,1675881241
396,mnogovershinnyy,53.9353,139.9242,-36.27,95,16,1.54,RU,1675881241
397,sundumbili,-29.1337,31.3975,22.32,93,100,6.3,ZA,1675881242
398,lahat,-3.8,103.5333,21.95,73,100,1.07,ID,1675881242
399,burnie,-41.0667,145.9167,14.97,95,100,5.32,AU,1675881242
400,gogrial,8.5332,28.1004,26.1,16,7,2.52,SS,1675881244
401,beisfjord,68.3751,17.5988,8.91,51,100,12.15,NO,1675881244
402,smirnykh,49.75,142.8333,-26.25,94,7,3.15,RU,1675881245
403,caravelas,-17.7125,-39.2481,28.77,57,62,4.86,BR,1675881246
404,port hawkesbury,45.6169,-61.3485,1.77,86,100,5.14,CA,1675881248
405,arman,59.7,150.1667,-28.67,84,41,4.13,RU,1675881162
406,edd,13.9297,41.6925,25.07,79,5,3.15,ER,1675881250
407,lebyazhye,55.2689,66.4947,-19.44,98,99,4.34,RU,1675881251
408,lake wales,27.9014,-81.5859,27.94,46,0,4.12,US,1675881057
409,arona,28.0996,-16.681,15.46,59,40,2.57,ES,1675881255
410,tautira,-17.7333,-149.15,26.39,74,7,3.09,PF,1675880723
411,matara,5.9485,80.5353,23.83,85,94,3.33,LK,1675880671
412,santo tomas,14.1079,121.1414,24.14,88,100,2.86,PH,1675881256
413,tougue,11.4667,-11.6,27.35,19,0,2.01,GN,1675881257
414,luneville,48.6,6.5,3.32,63,0,3.38,FR,1675881258
415,vestmanna,62.1564,-7.1664,1.51,75,75,7.72,FO,1675881258
416,batagay-alyta,67.8006,130.4114,-42.67,99,75,1.56,RU,1675881262
417,tanabe,33.7333,135.3667,4.0,82,36,3.76,JP,1675881263
418,noumea,-22.2763,166.4572,27.78,99,100,3.88,NC,1675881209
419,vagur,61.4732,-6.8119,3.89,60,99,16.42,FO,1675881264
420,miandrivazo,-19.5167,45.4667,24.14,94,100,1.56,MG,1675881264
421,puurmani,58.5738,26.2878,1.12,97,100,4.27,EE,1675881265
422,taos,36.4072,-105.5731,4.75,54,0,0.0,US,1675881265
423,mananjary,-21.2167,48.3333,24.19,90,97,2.47,MG,1675881266
424,naze,28.3667,129.4833,16.51,73,100,7.15,JP,1675881266
425,calabozo,8.9242,-67.4293,32.33,40,100,3.7,VE,1675881268
426,beruwala,6.4788,79.9828,25.1,87,81,2.4,LK,1675881269
427,zarinsk,53.7074,84.9493,-16.42,98,99,0.71,RU,1675881270
428,udachnyy,66.4167,112.4,-39.52,99,100,2.06,RU,1675881270
429,boditi,6.9667,37.8667,18.2,34,20,5.31,ET,1675881271
430,yanam,16.7333,82.2167,19.51,89,100,0.42,IN,1675881272
431,trindade,-16.6494,-49.4889,28.86,58,89,1.31,BR,1675881273
432,seminole,28.7086,-81.2081,27.92,50,20,5.14,US,1675881152
433,alamos,27.0167,-108.9333,26.17,6,0,1.85,MX,1675881273
434,la palma,33.8464,-118.0467,23.14,36,20,1.34,US,1675881274
435,skelleftea,64.7507,20.9528,1.2,99,0,5.66,SE,1675881091
436,xuddur,4.1213,43.8894,27.7,32,3,4.54,SO,1675880746
437,verkhnyaya inta,65.9811,60.3094,-1.78,86,100,12.52,RU,1675881275
438,poronaysk,49.2167,143.1167,-24.56,92,40,3.85,RU,1675881277
439,serebryanyy bor,56.8,124.8,-31.49,98,100,1.12,RU,1675881278
440,pacific grove,36.6177,-121.9166,16.9,59,0,5.36,US,1675881279
441,enshi,30.3,109.4833,7.66,95,100,0.66,CN,1675880747
442,garowe,8.4054,48.4845,22.98,66,28,6.18,SO,1675881280
443,belyy yar,53.6039,91.3903,-11.06,80,100,0.0,RU,1675881280
444,bouca,6.5105,18.2733,27.75,12,6,1.85,CF,1675881281
445,oranjestad,12.524,-70.027,29.97,62,40,10.8,AW,1675881281
446,contamana,-7.3333,-75.0167,33.3,43,95,2.4,PE,1675881282
447,manjeri,11.1167,76.1167,26.38,83,20,1.03,IN,1675881282
448,palmas de monte alto,-14.2672,-43.1619,32.47,28,33,3.99,BR,1675881283
449,iwanai,42.9744,140.5089,-5.57,76,100,6.85,JP,1675881283
450,manaus,-3.1019,-60.025,28.27,78,75,3.09,BR,1675880730
451,halifax,44.6453,-63.5724,4.69,78,75,5.66,CA,1675880842
452,port hardy,50.6996,-127.4199,2.1,100,75,1.03,CA,1675881017
453,kiama,-34.6833,150.8667,20.21,95,100,3.58,AU,1675881284
454,marsh harbour,26.5412,-77.0636,23.35,60,67,6.37,BS,1675881284
455,lompoc,34.6391,-120.4579,19.91,60,0,1.54,US,1675881242
456,mehamn,71.0357,27.8492,3.97,70,0,17.49,NO,1675881285
457,champerico,14.3,-91.9167,33.3,56,0,5.72,GT,1675881286
458,zhanaozen,43.3,52.8,-0.82,65,95,8.76,KZ,1675881286
459,qaqortoq,60.7167,-46.0333,-4.32,93,100,2.41,GL,1675881286
460,mount gambier,-37.8333,140.7667,12.29,93,7,1.95,AU,1675881197
461,modasa,23.4667,73.3,21.21,20,0,0.74,IN,1675881287
462,broken hill,-31.95,141.4333,23.1,21,0,1.87,AU,1675881288
463,sitka,57.0531,-135.33,1.94,87,100,2.06,US,1675881289
464,beberibe,-4.1797,-38.1306,28.02,65,11,4.77,BR,1675881289
465,harlingen,26.1906,-97.6961,16.95,82,100,8.75,US,1675881056
466,oranjemund,-28.55,16.4333,17.82,96,34,1.98,NA,1675881289
467,coihaique,-45.5752,-72.0662,22.97,46,75,4.63,CL,1675881290
468,mbigou,-1.9005,11.906,21.46,92,33,0.64,GA,1675881290
469,guantanamo,20.1444,-75.2092,29.76,42,10,6.42,CU,1675881291
470,aklavik,68.2191,-135.0107,-29.0,76,100,0.0,CA,1675881291
471,alim,9.5649,122.4876,24.84,80,100,2.4,PH,1675881292
472,luunja,58.3558,26.8808,1.19,89,100,5.66,EE,1675881292
473,shetpe,44.1667,52.1167,-4.34,81,100,8.82,KZ,1675881293
474,banamba,13.55,-7.45,29.73,13,0,3.94,ML,1675881293
475,kirakira,-10.4544,161.9205,26.83,82,100,3.16,SB,1675881294
476,mujiayingzi,42.1167,118.7833,-6.15,32,100,0.61,CN,1675881295
477,uyemskiy,64.4743,40.8524,-0.97,93,100,3.0,RU,1675881295
478,antofagasta,-23.65,-70.4,23.6,70,25,3.91,CL,1675881023
479,houma,29.5958,-90.7195,26.11,84,100,8.23,US,1675881210
480,kaoma,-14.7833,24.8,18.93,95,100,1.83,ZM,1675881296
481,pouebo,-20.4,164.5667,25.18,90,100,1.26,NC,1675881297
482,katangli,51.7102,143.2326,-34.48,98,15,3.43,RU,1675881297
483,novobiryusinskiy,56.9578,97.7076,-14.73,99,99,1.06,RU,1675881298
484,tianpeng,30.9866,103.9393,11.46,92,99,2.64,CN,1675880796
485,u thong,14.3751,99.8923,25.25,73,0,2.35,TH,1675881299
486,merauke,-8.4667,140.3333,25.14,93,100,4.62,ID,1675881299
487,cockburn town,21.4612,-71.1419,25.26,75,0,9.6,TC,1675881124
488,mildura,-34.2,142.15,21.32,28,0,3.25,AU,1675881300
489,scarborough,54.2797,-0.4044,5.76,67,100,5.36,GB,1675881250
490,santa clara,22.4,-79.9667,22.81,94,75,3.6,CU,1675881300
491,chapleau,47.8405,-83.4034,1.05,75,75,5.66,CA,1675881017
492,tezu,27.9167,96.1667,14.63,60,20,1.91,IN,1675880756
493,conceicao do araguaia,-8.2578,-49.2647,29.27,69,30,1.4,BR,1675881301
494,hyeres,43.1167,6.1167,8.18,49,0,4.12,FR,1675881302
495,nyurba,63.2842,118.3319,-47.5,100,67,0.65,RU,1675881221
496,aasiaat,68.7098,-52.8699,-32.67,92,5,4.33,GL,1675881303
497,verkh-usugli,52.7,115.1667,-21.24,100,99,0.43,RU,1675881305
498,sao joao da barra,-21.6403,-41.0511,27.05,88,100,2.58,BR,1675881305
499,ust-nera,64.5667,143.2,-41.14,98,91,0.37,RU,1675880794
500,akyab,20.15,92.9,20.03,76,2,3.64,MM,1675881306
501,ilulissat,69.2167,-51.1,-21.99,59,0,2.57,GL,1675881307
502,deniliquin,-35.5333,144.9667,20.3,71,100,3.84,AU,1675881307
503,fort nelson,58.8053,-122.7002,-15.59,83,40,1.34,CA,1675881308
504,grand gaube,-20.0064,57.6608,26.32,77,99,2.68,MU,1675880748
505,camopi,3.1655,-52.3158,26.11,91,76,1.96,GF,1675881310
506,margate,51.3813,1.3862,3.28,65,9,0.45,GB,1675881311
507,hit,33.6416,42.8251,8.37,48,34,3.62,IQ,1675881312
508,nuuk,64.1835,-51.7216,-7.66,79,100,10.29,GL,1675881130
509,bom jardim,-7.7958,-35.5872,28.63,52,100,5.24,BR,1675881312
510,feijo,-8.1642,-70.3536,27.23,92,39,1.69,BR,1675881313
511,solnechnyy,50.7214,136.6319,-27.41,98,99,1.21,RU,1675881314
512,amga,60.8953,131.9608,-41.59,100,100,0.38,RU,1675881315
513,meulaboh,4.1363,96.1285,24.46,88,100,1.15,ID,1675881315
514,oistins,13.0667,-59.5333,29.05,65,40,9.26,BB,1675881316
515,whitewater,42.8336,-88.7323,6.78,56,100,3.13,US,1675881094
516,flinders,-34.5833,150.8552,20.1,93,100,1.79,AU,1675881317
517,nizwa,22.9333,57.5333,23.89,31,4,1.5,OM,1675881317
518,suluq,31.6682,20.2521,13.02,57,95,7.34,LY,1675881318
519,barahona,18.2085,-71.1008,31.9,51,20,7.72,DO,1675881319
520,sinnamary,5.3833,-52.95,25.47,88,100,5.08,GF,1675881319
521,mitsamiouli,-11.3847,43.2844,27.05,78,100,2.16,KM,1675881320
522,mahanje,-9.9333,35.3333,18.42,94,89,1.3,TZ,1675881320
523,teknaf,20.8624,92.3058,17.88,82,5,2.51,BD,1675881322
524,chihuahua,28.5,-106.0,8.45,16,0,0.62,MX,1675881047
525,buenos aires,-34.6132,-58.3772,27.82,50,0,7.72,AR,1675881323
526,fuerte olimpo,-21.0415,-57.8738,32.87,48,45,2.76,PY,1675881324
527,ponnani,10.767,75.9252,26.62,84,13,0.65,IN,1675881324
528,san jeronimo,-11.9472,-75.2829,15.69,55,90,2.26,PE,1675881324
529,najran,17.4924,44.1277,23.36,23,99,1.45,SA,1675881325
530,jian,27.1172,114.9793,11.06,98,100,1.6,CN,1675881326
531,karla,59.3723,24.9275,2.54,95,100,5.66,EE,1675881326
532,sorland,67.667,12.6934,6.92,86,100,25.36,NO,1675881327
533,portobelo,9.55,-79.65,28.95,83,60,6.78,PA,1675881327
534,del rio,29.3627,-100.8968,18.06,34,0,11.32,US,1675881328
535,kalmunai,7.4167,81.8167,24.75,86,68,2.94,LK,1675880736
536,kruisfontein,-34.0033,24.7314,19.94,74,100,3.8,ZA,1675881328
537,pareora,-44.4871,171.2132,12.32,89,69,1.73,NZ,1675881329
538,gogaran,40.8926,44.1992,-15.09,90,100,0.44,AM,1675881330
539,orzhytsya,49.7918,32.7012,-6.85,90,5,2.44,UA,1675881330
540,itamaraju,-17.0392,-39.5311,30.41,47,15,5.57,BR,1675881331
541,berlevag,70.8578,29.0864,4.0,70,0,18.01,NO,1675881332
542,turbat,26.0023,63.044,21.58,46,100,1.62,PK,1675881332
543,jiuquan,39.7432,98.5174,-2.91,63,0,1.84,CN,1675881333
544,toora-khem,52.4675,96.11,-15.35,98,100,0.32,RU,1675881334
545,maputo,-25.9653,32.5892,23.82,100,100,1.54,MZ,1675881334
546,osakarovka,50.565,72.5692,-22.89,100,66,2.67,KZ,1675881336
547,port-gentil,-0.7193,8.7815,27.98,83,20,3.09,GA,1675880802
548,revda,56.801,59.9303,-11.51,93,100,5.28,RU,1675881337
549,viloco,-16.95,-67.55,10.73,73,100,2.98,BO,1675881338
550,menton,43.7765,7.5044,9.95,36,1,5.03,FR,1675881339
